[
  {
    "id": "0",
    "name": "Coast Hills Church",
    "type": "Church",
    "address": "5 Pursuit, Aliso Viejo, 92656",
    "lat": 33.5528149,
    "lng": -117.7255702,
    "careportal": false,
    "radius": 5,
    "website": "coasthills.church",
    "phone": "949-362-0079"
  },
  {
    "id": "1",
    "name": "Corpus Christi Catholic Church",
    "type": "Church",
    "address": "27231 Aliso Viejo Pkwy, Aliso Viejo, 92656",
    "lat": 33.5672035,
    "lng": -117.7303917,
    "careportal": false,
    "radius": 5,
    "website": "avcatholics.org",
    "phone": "949-389-9008"
  },
  {
    "id": "2",
    "name": "Saddleback Church – Aliso Viejo",
    "type": "Church",
    "address": "28000 Wolverine Way, Aliso Viejo, 92656",
    "lat": 33.5632975,
    "lng": -117.7196411,
    "careportal": false,
    "radius": 5,
    "website": "saddleback.com",
    "phone": ""
  },
  {
    "id": "3",
    "name": "Aliso Creek Church",
    "type": "Church",
    "address": "2A Liberty, Aliso Viejo, 92656",
    "lat": 33.5613799,
    "lng": -117.7302676,
    "careportal": false,
    "radius": 5,
    "website": "alisocreekchurch.org",
    "phone": "949-460-0080"
  },
  {
    "id": "5",
    "name": "Lutheran Church of the Cross – AV",
    "type": "Church",
    "address": "1 Orion, Aliso Viejo, 92656",
    "lat": 33.5577868,
    "lng": -117.7272209,
    "careportal": false,
    "radius": 5,
    "website": "",
    "phone": ""
  },
  {
    "id": "7",
    "name": "Celebration Christian Center",
    "type": "Church",
    "address": "4 Journey, Aliso Viejo, 92656",
    "lat": 33.5691883,
    "lng": -117.7273481,
    "careportal": false,
    "radius": 5,
    "website": "",
    "phone": ""
  },
  {
    "id": "8",
    "name": "Iglesia Esperanza Viva",
    "type": "Church",
    "address": "62 Mallorn Dr, Aliso Viejo, 92656",
    "lat": 33.5655879,
    "lng": -117.7343415,
    "careportal": false,
    "radius": 5,
    "website": "",
    "phone": ""
  },
  {
    "id": "9",
    "name": "Iglesia Vida Abundante",
    "type": "Church",
    "address": "4 Marigold, Aliso Viejo, 92656",
    "lat": 33.5923612,
    "lng": -117.719934,
    "careportal": false,
    "radius": 5,
    "website": "",
    "phone": ""
  },
  {
    "id": "10",
    "name": "Pacific Hills Church",
    "type": "Church",
    "address": "150 Columbia, Aliso Viejo, 92656",
    "lat": 33.5886965,
    "lng": -117.7252927,
    "careportal": false,
    "radius": 5,
    "website": "ccpacifichills.org",
    "phone": "949-362-7475"
  },
  {
    "id": "12",
    "name": "South Orange Korean Reformed Church",
    "type": "Church",
    "address": "23 Dogwood Ln, Aliso Viejo, 92656",
    "lat": 33.5713,
    "lng": -117.711147,
    "careportal": false,
    "radius": 5,
    "website": "",
    "phone": ""
  },
  {
    "id": "13",
    "name": "Gloria Dei Lutheran Church",
    "type": "Church",
    "address": "33501 Stonehill Dr, Dana Point, 92629",
    "lat": 33.4757354,
    "lng": -117.6904971,
    "careportal": false,
    "radius": 5,
    "website": "",
    "phone": "949-493-3414"
  },
  {
    "id": "14",
    "name": "Pacific Coast Church (Capo Beach)",
    "type": "Church",
    "address": "25975 Domingo Ave, Capistrano Beach, 92624",
    "lat": 33.465399,
    "lng": -117.676344,
    "careportal": false,
    "radius": 5,
    "website": "capobeachchurch.com",
    "phone": "949-493-2006"
  },
  {
    "id": "15",
    "name": "Pacific Bible Church",
    "type": "Church",
    "address": "24745 Camarillo St, Dana Point, 92629",
    "lat": 33.4794481,
    "lng": -117.698086,
    "careportal": false,
    "radius": 5,
    "website": "",
    "phone": ""
  },
  {
    "id": "16",
    "name": "San Felipe de Jesús Catholic Church",
    "type": "Church",
    "address": "26010 Domingo Ave, Capistrano Beach, 92624",
    "lat": 33.4643742,
    "lng": -117.6763099,
    "careportal": false,
    "radius": 5,
    "website": "",
    "phone": ""
  },
  {
    "id": "17",
    "name": "Saddleback Church – Dana Point",
    "type": "Church",
    "address": "24399 Dana Dr, Dana Point, 92629",
    "lat": 33.4607101,
    "lng": -117.7043368,
    "careportal": false,
    "radius": 5,
    "website": "saddleback.com",
    "phone": ""
  },
  {
    "id": "18",
    "name": "St. Edward the Confessor Catholic Church",
    "type": "Church",
    "address": "33926 Calle La Primavera, Dana Point, 92629",
    "lat": 33.470205,
    "lng": -117.6896725,
    "careportal": false,
    "radius": 5,
    "website": "stedward.com",
    "phone": "949-496-1307"
  },
  {
    "id": "19",
    "name": "South Shores Church",
    "type": "Church",
    "address": "32712 Crown Valley Pkwy, Dana Point, 92629",
    "lat": 33.4868892,
    "lng": -117.7272322,
    "careportal": false,
    "radius": 5,
    "website": "southshores.org",
    "phone": "949-496-9331"
  },
  {
    "id": "20",
    "name": "Capo Beach Palisades UMC",
    "type": "Church",
    "address": "27002 Camino de Estrella, Capistrano Beach, 92624",
    "lat": 33.4539299,
    "lng": -117.6600372,
    "careportal": false,
    "radius": 5,
    "website": "",
    "phone": ""
  },
  {
    "id": "21",
    "name": "Holy Trinity Catholic Church",
    "type": "Church",
    "address": "1600 Corporate Dr, Ladera Ranch, 92694",
    "lat": 33.5558098,
    "lng": -117.6285427,
    "careportal": false,
    "radius": 5,
    "website": "holytrinityladera.org",
    "phone": "949-218-3131"
  },
  {
    "id": "22",
    "name": "Village Presbyterian Church",
    "type": "Church",
    "address": "19 Laurelhurst Dr, Ladera Ranch, 92694",
    "lat": 33.5715469,
    "lng": -117.6383074,
    "careportal": false,
    "radius": 5,
    "website": "",
    "phone": ""
  },
  {
    "id": "24",
    "name": "American Catholic Church",
    "type": "Church",
    "address": "430 Park Ave, Laguna Beach, 92651",
    "lat": 33.5422123,
    "lng": -117.7808016,
    "careportal": false,
    "radius": 5,
    "website": "",
    "phone": ""
  },
  {
    "id": "25",
    "name": "Calvary Chapel Seaside",
    "type": "Church",
    "address": "21540 Wesley Dr, Laguna Beach, 92651",
    "lat": 33.5139312,
    "lng": -117.7550641,
    "careportal": false,
    "radius": 5,
    "website": "",
    "phone": ""
  },
  {
    "id": "26",
    "name": "Laguna Beach United Methodist Church",
    "type": "Church",
    "address": "21632 Wesley Dr, Laguna Beach, 92651",
    "lat": 33.5137865,
    "lng": -117.752738,
    "careportal": false,
    "radius": 5,
    "website": "lagunabeachumc.org",
    "phone": ""
  },
  {
    "id": "27",
    "name": "Laguna Presbyterian Church",
    "type": "Church",
    "address": "415 Forest Ave, Laguna Beach, 92651",
    "lat": 33.5436648,
    "lng": -117.7816941,
    "careportal": false,
    "radius": 5,
    "website": "lagunapreschurch.org",
    "phone": "949-494-7555"
  },
  {
    "id": "28",
    "name": "Neighborhood Congregational Church",
    "type": "Church",
    "address": "340 St. Ann’s Dr, Laguna Beach, 92651",
    "lat": 33.5376938,
    "lng": -117.778047,
    "careportal": false,
    "radius": 5,
    "website": "ncclaguna.org",
    "phone": "949-494-8061"
  },
  {
    "id": "29",
    "name": "Church By The Sea",
    "type": "Church",
    "address": "468 Legion St, Laguna Beach, 92651",
    "lat": 33.5412916,
    "lng": -117.7793355,
    "careportal": false,
    "radius": 5,
    "website": "churchbythesea.org",
    "phone": "949-494-6600"
  },
  {
    "id": "30",
    "name": "Redemption Church",
    "type": "Church",
    "address": "1085 Laguna Canyon Rd, Laguna Beach, 92651",
    "lat": 33.5511816,
    "lng": -117.7774266,
    "careportal": false,
    "radius": 5,
    "website": "redemptionlaguna.org",
    "phone": ""
  },
  {
    "id": "31",
    "name": "St. Mary’s Episcopal Church",
    "type": "Church",
    "address": "428 Park Ave, Laguna Beach, 92651",
    "lat": 33.5422875,
    "lng": -117.7810691,
    "careportal": false,
    "radius": 5,
    "website": "stmaryslagunabeach.org",
    "phone": "949-494-3542"
  },
  {
    "id": "32",
    "name": "St. Catherine of Siena Catholic Church",
    "type": "Church",
    "address": "1042 Temple Terrace, Laguna Beach, 92651",
    "lat": 33.5377862,
    "lng": -117.7717575,
    "careportal": false,
    "radius": 5,
    "website": "stcathchurch.org",
    "phone": "949-494-9701"
  },
  {
    "id": "33",
    "name": "Saint Paul’s Lutheran Church",
    "type": "Church",
    "address": "1190 N. Morningside Dr, Laguna Beach, 92651",
    "lat": 33.5409876,
    "lng": -117.7568014,
    "careportal": false,
    "radius": 5,
    "website": "stpaulslutheranlb.org",
    "phone": "949-494-6971"
  },
  {
    "id": "35",
    "name": "Open Christian Church",
    "type": "Church",
    "address": "2222 Laguna Canyon Rd, Laguna Beach, 92651",
    "lat": 33.5614061,
    "lng": -117.7730215,
    "careportal": false,
    "radius": 5,
    "website": "",
    "phone": ""
  },
  {
    "id": "36",
    "name": "Crossline Church",
    "type": "Church",
    "address": "23331 Moulton Pkwy, Laguna Hills, 92653",
    "lat": 33.6239037,
    "lng": -117.7307146,
    "careportal": false,
    "radius": 5,
    "website": "crosslinechurch.com",
    "phone": "949-916-0250"
  },
  {
    "id": "38",
    "name": "The Movement Church",
    "type": "Church",
    "address": "25401 Paseo De Valencia, Laguna Hills, 92653",
    "lat": 33.5928104,
    "lng": -117.7038811,
    "careportal": false,
    "radius": 5,
    "website": "themovement.church",
    "phone": ""
  },
  {
    "id": "39",
    "name": "Evangelical Free Church of Laguna Hills",
    "type": "Church",
    "address": "25382 Mackenzie St, Laguna Hills, 92653",
    "lat": 33.594529,
    "lng": -117.679827,
    "careportal": false,
    "radius": 5,
    "website": "",
    "phone": ""
  },
  {
    "id": "40",
    "name": "St. George’s Episcopal Church",
    "type": "Church",
    "address": "23802 Avenida de la Carlota, Laguna Hills, 92653",
    "lat": 33.615693,
    "lng": -117.7108069,
    "careportal": false,
    "radius": 5,
    "website": "stgeorgesparish.org",
    "phone": ""
  },
  {
    "id": "41",
    "name": "Temple Builders Community Church",
    "type": "Church",
    "address": "25661 Paseo De Valencia, Laguna Hills, 92653",
    "lat": 33.5927078,
    "lng": -117.6821425,
    "careportal": false,
    "radius": 5,
    "website": "",
    "phone": ""
  },
  {
    "id": "42",
    "name": "Laguna Hills Church of Christ",
    "type": "Church",
    "address": "25411 Cabot Rd, Laguna Hills, 92653",
    "lat": 33.5921811,
    "lng": -117.6751834,
    "careportal": false,
    "radius": 5,
    "website": "",
    "phone": ""
  },
  {
    "id": "43",
    "name": "First Baptist Church of Laguna Woods",
    "type": "Church",
    "address": "24521 Moulton Pkwy, Laguna Woods, 92637",
    "lat": 33.6088763,
    "lng": -117.7240151,
    "careportal": false,
    "radius": 5,
    "website": "",
    "phone": "949-837-2435"
  },
  {
    "id": "44",
    "name": "Geneva Presbyterian Church",
    "type": "Church",
    "address": "24301 El Toro Rd, Laguna Woods, 92637",
    "lat": 33.6093712,
    "lng": -117.733381,
    "careportal": false,
    "radius": 5,
    "website": "genevapres.org",
    "phone": "949-837-2323"
  },
  {
    "id": "45",
    "name": "Laguna Country UMC",
    "type": "Church",
    "address": "24442 Moulton Pkwy, Laguna Woods, 92637",
    "lat": 33.6091741,
    "lng": -117.7242424,
    "careportal": false,
    "radius": 5,
    "website": "",
    "phone": ""
  },
  {
    "id": "46",
    "name": "St. Nicholas Catholic Church",
    "type": "Church",
    "address": "24252 El Toro Rd, Laguna Woods, 92637",
    "lat": 33.6117693,
    "lng": -117.721264,
    "careportal": false,
    "radius": 5,
    "website": "st-nicholaschurch.org",
    "phone": "949-837-1090"
  },
  {
    "id": "47",
    "name": "Calvary Chapel Pacific Hills",
    "type": "Church",
    "address": "24481 Moulton Pkwy, Laguna Woods, 92637",
    "lat": 33.6090265,
    "lng": -117.724131,
    "careportal": false,
    "radius": 5,
    "website": "ccpacifichills.org",
    "phone": "949-362-7475"
  },
  {
    "id": "48",
    "name": "Lutheran Church of the Cross",
    "type": "Church",
    "address": "24231 El Toro Rd, Laguna Woods, 92637",
    "lat": 33.6126505,
    "lng": -117.7223599,
    "careportal": false,
    "radius": 5,
    "website": "lutherancross.org",
    "phone": ""
  },
  {
    "id": "49",
    "name": "Saddleback – Laguna Woods",
    "type": "Church",
    "address": "24262 Punta Alta, Laguna Woods, 92637",
    "lat": 33.608407,
    "lng": -117.7482604,
    "careportal": false,
    "radius": 5,
    "website": "saddleback.com",
    "phone": ""
  },
  {
    "id": "50",
    "name": "Christian Mission Church",
    "type": "Church",
    "address": "27812 Forbes Rd #A, Laguna Niguel, 92677",
    "lat": 33.5591198,
    "lng": -117.6765726,
    "careportal": false,
    "radius": 5,
    "website": "",
    "phone": ""
  },
  {
    "id": "51",
    "name": "Faith Episcopal Church",
    "type": "Church",
    "address": "27802 El Lazo, Laguna Niguel, 92677",
    "lat": 33.5592238,
    "lng": -117.7094955,
    "careportal": false,
    "radius": 5,
    "website": "faithepiscopal.org",
    "phone": "949-249-1218"
  },
  {
    "id": "52",
    "name": "Laguna Niguel Presbyterian Church",
    "type": "Church",
    "address": "30071 Ivy Glenn Dr, Laguna Niguel, 92677",
    "lat": 33.5268674,
    "lng": -117.7160581,
    "careportal": false,
    "radius": 5,
    "website": "lagunaniguelpresbyterian.com",
    "phone": "949-249-1211"
  },
  {
    "id": "53",
    "name": "Mission Lutheran Church",
    "type": "Church",
    "address": "24360 Yosemite Rd, Laguna Niguel, 92677",
    "lat": 33.5501115,
    "lng": -117.7040538,
    "careportal": false,
    "radius": 5,
    "website": "missionlutheran.org",
    "phone": "949-831-8820"
  },
  {
    "id": "55",
    "name": "Vineyard Community Church",
    "type": "Church",
    "address": "27632 El Lazo #A, Laguna Niguel, 92677",
    "lat": 33.5622767,
    "lng": -117.7093947,
    "careportal": false,
    "radius": 5,
    "website": "vineyardoc.org",
    "phone": ""
  },
  {
    "id": "56",
    "name": "Laguna First Church",
    "type": "Church",
    "address": "29012 Aloma Ave, Laguna Niguel, 92677",
    "lat": 33.5412139,
    "lng": -117.6905302,
    "careportal": false,
    "radius": 5,
    "website": "",
    "phone": ""
  },
  {
    "id": "57",
    "name": "Laguna Niguel Foursquare Church",
    "type": "Church",
    "address": "27821 La Paz Rd, Laguna Niguel, 92677",
    "lat": 33.5590286,
    "lng": -117.7090926,
    "careportal": false,
    "radius": 5,
    "website": "",
    "phone": ""
  },
  {
    "id": "59",
    "name": "St. Timothy Catholic Church",
    "type": "Church",
    "address": "29102 Crown Valley Pkwy, Laguna Niguel, 92677",
    "lat": 33.5441149,
    "lng": -117.6908158,
    "careportal": false,
    "radius": 5,
    "website": "st-timsrc.org",
    "phone": "949-249-4091"
  },
  {
    "id": "61",
    "name": "Crown Valley Covenant Church",
    "type": "Church",
    "address": "24600 La Plata Dr, Laguna Niguel, 92677",
    "lat": 33.5328365,
    "lng": -117.7005117,
    "careportal": false,
    "radius": 5,
    "website": "",
    "phone": ""
  },
  {
    "id": "62",
    "name": "Mercy Covenant Church",
    "type": "Church",
    "address": "28052 Camino Capistrano, Laguna Niguel, 92677",
    "lat": 33.5560577,
    "lng": -117.6736964,
    "careportal": false,
    "radius": 5,
    "website": "",
    "phone": ""
  },
  {
    "id": "63",
    "name": "Abiding Savior Lutheran Church",
    "type": "Church",
    "address": "23262 El Toro Rd, Lake Forest, 92630",
    "lat": 33.6241538,
    "lng": -117.6945992,
    "careportal": false,
    "radius": 5,
    "website": "abidingsavior.com",
    "phone": "949-830-1460"
  },
  {
    "id": "64",
    "name": "Grace Community Church",
    "type": "Church",
    "address": "26052 Trabuco Rd, Lake Forest, 92630",
    "lat": 33.6316945,
    "lng": -117.6764691,
    "careportal": false,
    "radius": 5,
    "website": "graceoc.com",
    "phone": "949-581-4248"
  },
  {
    "id": "66",
    "name": "Saddleback Church – Main Campus",
    "type": "Church",
    "address": "1 Saddleback Pkwy, Lake Forest, 92630",
    "lat": 33.6614157,
    "lng": -117.6521642,
    "careportal": false,
    "radius": 5,
    "website": "saddleback.com",
    "phone": ""
  },
  {
    "id": "67",
    "name": "Santiago de Compostela Catholic Church",
    "type": "Church",
    "address": "21682 Lake Forest Dr, Lake Forest, 92630",
    "lat": 33.6468306,
    "lng": -117.6831135,
    "careportal": false,
    "radius": 5,
    "website": "sdccatholic.org",
    "phone": "949-951-8599"
  },
  {
    "id": "68",
    "name": "Urim Korean Church",
    "type": "Church",
    "address": "23662 Birtcher Dr, Lake Forest, 92630",
    "lat": 33.6334082,
    "lng": -117.7170735,
    "careportal": false,
    "radius": 5,
    "website": "",
    "phone": ""
  },
  {
    "id": "69",
    "name": "Calvary Chapel Lake Forest",
    "type": "Church",
    "address": "20762 Canada Rd, Lake Forest, 92630",
    "lat": 33.6605336,
    "lng": -117.6719367,
    "careportal": false,
    "radius": 5,
    "website": "calvarylakeforest.org",
    "phone": "949-707-0800"
  },
  {
    "id": "71",
    "name": "The Hills Spiritual Center",
    "type": "Church",
    "address": "23685 Birtcher Dr, Lake Forest, 92630",
    "lat": 33.6339105,
    "lng": -117.7166329,
    "careportal": false,
    "radius": 5,
    "website": "",
    "phone": ""
  },
  {
    "id": "72",
    "name": "Calvary Chapel Foothill Ranch",
    "type": "Church",
    "address": "26882 Vista Ter, Lake Forest, 92630",
    "lat": 33.6656194,
    "lng": -117.6619436,
    "careportal": false,
    "radius": 5,
    "website": "",
    "phone": ""
  },
  {
    "id": "73",
    "name": "Arbor Christian Fellowship",
    "type": "Church",
    "address": "23302 El Toro Rd, Lake Forest, 92630",
    "lat": 33.6237675,
    "lng": -117.6955217,
    "careportal": false,
    "radius": 5,
    "website": "arborchurch.org",
    "phone": "949-830-7473"
  },
  {
    "id": "76",
    "name": "Cristo Rompe Las Cadenas",
    "type": "Church",
    "address": "24422 Muirlands Blvd, Lake Forest, 92630",
    "lat": 33.6264329,
    "lng": -117.701761,
    "careportal": false,
    "radius": 5,
    "website": "",
    "phone": ""
  },
  {
    "id": "77",
    "name": "Foothill Family Church",
    "type": "Church",
    "address": "26981 Vista Ter #A, Lake Forest, 92630",
    "lat": 33.665752,
    "lng": -117.659475,
    "careportal": false,
    "radius": 5,
    "website": "foothillfamily.com",
    "phone": "949-455-9119"
  },
  {
    "id": "78",
    "name": "St. Marina Coptic Orthodox Church",
    "type": "Church",
    "address": "23672 Birtcher Dr, Lake Forest, 92630",
    "lat": 33.633065,
    "lng": -117.7173208,
    "careportal": false,
    "radius": 5,
    "website": "saintmarina.org",
    "phone": "949-462-0260"
  },
  {
    "id": "79",
    "name": "Mission Viejo Christian Church",
    "type": "Church",
    "address": "27192 Jeronimo Rd, Mission Viejo, 92692",
    "lat": 33.6069385,
    "lng": -117.656362,
    "careportal": false,
    "radius": 5,
    "website": "mvcchome.org",
    "phone": "949-465-1940"
  },
  {
    "id": "80",
    "name": "Calvary Chapel Mission Viejo",
    "type": "Church",
    "address": "24821 Chrisanta Dr, Mission Viejo, 92691",
    "lat": 33.6022234,
    "lng": -117.6740731,
    "careportal": false,
    "radius": 5,
    "website": "calvarymissionviejo.com",
    "phone": "949-768-4191"
  },
  {
    "id": "81",
    "name": "Church of the Master",
    "type": "Church",
    "address": "26051 Marguerite Pkwy, Mission Viejo, 92692",
    "lat": 33.5851303,
    "lng": -117.6599203,
    "careportal": false,
    "radius": 5,
    "website": "churchofthemaster.com",
    "phone": "949-582-2670"
  },
  {
    "id": "82",
    "name": "Coast Bible Church",
    "type": "Church",
    "address": "26300 Via Escolar, Mission Viejo, 92692",
    "lat": 33.5405273,
    "lng": -117.6716552,
    "careportal": false,
    "radius": 5,
    "website": "coastbible.org",
    "phone": "949-364-6670"
  },
  {
    "id": "83",
    "name": "Mariners Church – Mission Viejo",
    "type": "Church",
    "address": "26862 Crown Valley Pkwy, Mission Viejo, 92691",
    "lat": 33.5620982,
    "lng": -117.6659119,
    "careportal": false,
    "radius": 5,
    "website": "marinerschurch.org",
    "phone": ""
  },
  {
    "id": "84",
    "name": "Mission Hills Baptist Church",
    "type": "Church",
    "address": "24162 Alicia Pkwy, Mission Viejo, 92691",
    "lat": 33.6102189,
    "lng": -117.6847198,
    "careportal": false,
    "radius": 5,
    "website": "missionhillschurch.org",
    "phone": "949-586-4510"
  },
  {
    "id": "85",
    "name": "Mission Viejo Church of Christ",
    "type": "Church",
    "address": "26558 Marguerite Pkwy, Mission Viejo, 92692",
    "lat": 33.5772205,
    "lng": -117.6577102,
    "careportal": false,
    "radius": 5,
    "website": "mvcoc.org",
    "phone": "949-582-2650"
  },
  {
    "id": "86",
    "name": "Mount of Olives Church",
    "type": "Church",
    "address": "24772 Chrisanta Dr, Mission Viejo, 92691",
    "lat": 33.6037326,
    "lng": -117.6728184,
    "careportal": false,
    "radius": 5,
    "website": "moochurch.org",
    "phone": "949-837-7467"
  },
  {
    "id": "87",
    "name": "Saddleback Covenant Church",
    "type": "Church",
    "address": "23401 Madero #A, Mission Viejo, 92691",
    "lat": 33.6231922,
    "lng": -117.6785791,
    "careportal": false,
    "radius": 5,
    "website": "saddlebackcovenant.com",
    "phone": "949-707-1211"
  },
  {
    "id": "88",
    "name": "Shepherd of the Hills UMC",
    "type": "Church",
    "address": "26001 Muirlands Blvd, Mission Viejo, 92691",
    "lat": 33.6000857,
    "lng": -117.6760542,
    "careportal": false,
    "radius": 5,
    "website": "shepherdorthehills.org",
    "phone": "949-837-2941"
  },
  {
    "id": "90",
    "name": "Crossroads Community Church",
    "type": "Church",
    "address": "25991 Pala, Mission Viejo, 92691",
    "lat": 33.6201413,
    "lng": -117.6775526,
    "careportal": false,
    "radius": 5,
    "website": "crossroadsoc.org",
    "phone": "949-837-2435"
  },
  {
    "id": "91",
    "name": "Fearless OC",
    "type": "Church",
    "address": "27741 Crown Valley Pkwy, Mission Viejo, 92691",
    "lat": 33.5611261,
    "lng": -117.6714787,
    "careportal": false,
    "radius": 5,
    "website": "fearlessla.com/oc",
    "phone": ""
  },
  {
    "id": "92",
    "name": "Joy Persian Church",
    "type": "Church",
    "address": "24932 Veterans Way, Mission Viejo, 92692",
    "lat": 33.6014214,
    "lng": -117.6516508,
    "careportal": false,
    "radius": 5,
    "website": "",
    "phone": ""
  },
  {
    "id": "93",
    "name": "Mission Calvary",
    "type": "Church",
    "address": "24932 Veterans Way, Mission Viejo, 92692",
    "lat": 33.6014214,
    "lng": -117.6516508,
    "careportal": false,
    "radius": 5,
    "website": "missioncalvary.com",
    "phone": ""
  },
  {
    "id": "95",
    "name": "South County Foursquare Church",
    "type": "Church",
    "address": "27741 Crown Valley Pkwy, Mission Viejo, 92691",
    "lat": 33.5611261,
    "lng": -117.6714787,
    "careportal": false,
    "radius": 5,
    "website": "",
    "phone": ""
  },
  {
    "id": "96",
    "name": "St. Kilian Catholic Church",
    "type": "Church",
    "address": "26872 Estanciero Dr, Mission Viejo, 92691",
    "lat": 33.5910354,
    "lng": -117.6615064,
    "careportal": false,
    "radius": 5,
    "website": "stkilianchurch.org",
    "phone": "949-586-4440"
  },
  {
    "id": "97",
    "name": "Centro Familiar Cristiano",
    "type": "Church",
    "address": "25171 Moor Ave, Mission Viejo, 92691",
    "lat": 33.6168342,
    "lng": -117.6911854,
    "careportal": false,
    "radius": 5,
    "website": "",
    "phone": ""
  },
  {
    "id": "98",
    "name": "Church in Mission Viejo",
    "type": "Church",
    "address": "25025 Chrisanta Dr, Mission Viejo, 92691",
    "lat": 33.5967916,
    "lng": -117.6704256,
    "careportal": false,
    "radius": 5,
    "website": "churchinmissionviejo.org",
    "phone": ""
  },
  {
    "id": "99",
    "name": "Gateway Community Church",
    "type": "Church",
    "address": "28570 Marguerite Pkwy, Mission Viejo, 92692",
    "lat": 33.5479592,
    "lng": -117.669848,
    "careportal": false,
    "radius": 5,
    "website": "gccvistage.org",
    "phone": ""
  },
  {
    "id": "100",
    "name": "Iglesia De Jesucristo",
    "type": "Church",
    "address": "23850 Los Alisos Blvd, Mission Viejo, 92691",
    "lat": 33.6156455,
    "lng": -117.6933169,
    "careportal": false,
    "radius": 5,
    "website": "",
    "phone": ""
  },
  {
    "id": "102",
    "name": "Saddleback Valley Foursquare Church",
    "type": "Church",
    "address": "28185 Cascabel, Mission Viejo, 92692",
    "lat": 33.6124217,
    "lng": -117.6388375,
    "careportal": false,
    "radius": 5,
    "website": "",
    "phone": ""
  },
  {
    "id": "105",
    "name": "Valley Christian Church",
    "type": "Church",
    "address": "23762 Singapore St, Mission Viejo, 92691",
    "lat": 33.616884,
    "lng": -117.6864234,
    "careportal": false,
    "radius": 5,
    "website": "",
    "phone": ""
  },
  {
    "id": "106",
    "name": "Community Lutheran Church",
    "type": "Church",
    "address": "30322 Via Con Dios, Rancho Santa Margarita, 92688",
    "lat": 33.645125,
    "lng": -117.6023438,
    "careportal": false,
    "radius": 5,
    "website": "clcrsm.org",
    "phone": "949-858-0307"
  },
  {
    "id": "107",
    "name": "St. John’s Episcopal Church",
    "type": "Church",
    "address": "30382 Via Con Dios, Rancho Santa Margarita, 92688",
    "lat": 33.6442122,
    "lng": -117.6024729,
    "careportal": false,
    "radius": 5,
    "website": "stjohns-es.org",
    "phone": "949-888-4595"
  },
  {
    "id": "108",
    "name": "San Francisco Solano Catholic Church",
    "type": "Church",
    "address": "22082 Antonio Pkwy, Rancho Santa Margarita, 92688",
    "lat": 33.642393,
    "lng": -117.5838515,
    "careportal": false,
    "radius": 5,
    "website": "sfsolano.org",
    "phone": "949-589-7767"
  },
  {
    "id": "109",
    "name": "Santa Margarita United Methodist Church",
    "type": "Church",
    "address": "30605 Avenida de Las Flores, Rancho Santa Margarita, 92688",
    "lat": 33.63838,
    "lng": -117.6002308,
    "careportal": false,
    "radius": 5,
    "website": "smumc.net",
    "phone": "949-589-1502"
  },
  {
    "id": "111",
    "name": "Living Water Community Church",
    "type": "Church",
    "address": "30071 Tomas, Rancho Santa Margarita, 92688",
    "lat": 33.6392527,
    "lng": -117.6054092,
    "careportal": false,
    "radius": 5,
    "website": "livingwateroc.org",
    "phone": "949-766-1810"
  },
  {
    "id": "112",
    "name": "Calvary Chapel RSM",
    "type": "Church",
    "address": "30615 Avenida de Las Flores, Rancho Santa Margarita, 92688",
    "lat": 33.6376233,
    "lng": -117.599837,
    "careportal": false,
    "radius": 5,
    "website": "calvaryrsm.org",
    "phone": "949-858-6170"
  },
  {
    "id": "113",
    "name": "Foothills Church",
    "type": "Church",
    "address": "23122 Arroyo Vista, Rancho Santa Margarita, 92688",
    "lat": 33.6270035,
    "lng": -117.608012,
    "careportal": false,
    "radius": 5,
    "website": "foothillschurchrsm.com",
    "phone": "949-586-0273"
  },
  {
    "id": "114",
    "name": "RSM South Foursquare Church",
    "type": "Church",
    "address": "30162 Tomas, Rancho Santa Margarita, 92688",
    "lat": 33.6376049,
    "lng": -117.6040178,
    "careportal": false,
    "radius": 5,
    "website": "",
    "phone": ""
  },
  {
    "id": "115",
    "name": "Mission Viejo First Church",
    "type": "Church",
    "address": "30442 Via Con Dios, Rancho Santa Margarita, 92688",
    "lat": 33.6442308,
    "lng": -117.6008833,
    "careportal": false,
    "radius": 5,
    "website": "",
    "phone": ""
  },
  {
    "id": "117",
    "name": "Saddleback Family Church",
    "type": "Church",
    "address": "29821 Aventura, Rancho Santa Margarita, 92688",
    "lat": 33.636574,
    "lng": -117.6098259,
    "careportal": false,
    "radius": 5,
    "website": "",
    "phone": ""
  },
  {
    "id": "118",
    "name": "Christ Lutheran Church",
    "type": "Church",
    "address": "35522 Camino Capistrano, San Clemente, 92672",
    "lat": 33.445874,
    "lng": -117.6487815,
    "careportal": false,
    "radius": 5,
    "website": "christlutheran.org",
    "phone": "949-496-2621"
  },
  {
    "id": "119",
    "name": "Cornerstone Community Church",
    "type": "Church",
    "address": "708 Avenida de la Estrella, San Clemente, 92672",
    "lat": 33.4322891,
    "lng": -117.6173368,
    "careportal": false,
    "radius": 5,
    "website": "cornerstonechurchsc.org",
    "phone": "949-492-2626"
  },
  {
    "id": "120",
    "name": "Heritage Christian Fellowship",
    "type": "Church",
    "address": "190 Avenida La Pata, San Clemente, 92673",
    "lat": 33.4537227,
    "lng": -117.5929488,
    "careportal": false,
    "radius": 5,
    "website": "heritagechristianfellowship.com",
    "phone": "949-361-1022"
  },
  {
    "id": "121",
    "name": "Our Lady of Fatima Catholic Church",
    "type": "Church",
    "address": "105 N. La Esperanza, San Clemente, 92672",
    "lat": 33.4295524,
    "lng": -117.6085497,
    "careportal": false,
    "radius": 5,
    "website": "olfchurch.net",
    "phone": "949-492-4101"
  },
  {
    "id": "122",
    "name": "Our Savior’s Lutheran Church",
    "type": "Church",
    "address": "200 Avenida San Pablo, San Clemente, 92672",
    "lat": 33.415788,
    "lng": -117.598693,
    "careportal": false,
    "radius": 5,
    "website": "oursaviorsonline.com",
    "phone": "949-492-6164"
  },
  {
    "id": "123",
    "name": "Pacific Coast Church",
    "type": "Church",
    "address": "2651 Calle Frontera, San Clemente, 92673",
    "lat": 33.4446137,
    "lng": -117.6287739,
    "careportal": false,
    "radius": 5,
    "website": "pacificcoastchurch.org",
    "phone": "949-940-2600"
  },
  {
    "id": "124",
    "name": "Saddleback Church – San Clemente",
    "type": "Church",
    "address": "1311 Calle Batido, San Clemente, 92673",
    "lat": 33.4575898,
    "lng": -117.5859204,
    "careportal": false,
    "radius": 5,
    "website": "saddleback.com",
    "phone": ""
  },
  {
    "id": "125",
    "name": "St. Michael’s Episcopal Church",
    "type": "Church",
    "address": "107 W. Marquita, San Clemente, 92672",
    "lat": 33.4291471,
    "lng": -117.6176276,
    "careportal": false,
    "radius": 5,
    "website": "stmichaelsc.org",
    "phone": "949-366-9480"
  },
  {
    "id": "126",
    "name": "San Clemente Presbyterian Church",
    "type": "Church",
    "address": "119 N. Avenida de la Estrella, San Clemente, 92672",
    "lat": 33.4293722,
    "lng": -117.6133007,
    "careportal": false,
    "radius": 5,
    "website": "scpres.org",
    "phone": "949-492-6158"
  },
  {
    "id": "127",
    "name": "St. Clement’s by-the-Sea UMC",
    "type": "Church",
    "address": "202 Avenida Aragon, San Clemente, 92672",
    "lat": 33.429186,
    "lng": -117.6249601,
    "careportal": false,
    "radius": 5,
    "website": "scbythesea.org",
    "phone": "949-492-3401"
  },
  {
    "id": "128",
    "name": "Calvary Chapel San Clemente",
    "type": "Church",
    "address": "1130 Avenida Talega, San Clemente, 92673",
    "lat": 33.46829,
    "lng": -117.5983193,
    "careportal": false,
    "radius": 5,
    "website": "calvarysanclemente.org",
    "phone": "949-228-9117"
  },
  {
    "id": "129",
    "name": "Lighthouse Church",
    "type": "Church",
    "address": "1101 Calle Puente, San Clemente, 92672",
    "lat": 33.428573,
    "lng": -117.623575,
    "careportal": false,
    "radius": 5,
    "website": "lighthousesanclemente.org",
    "phone": "949-366-1970"
  },
  {
    "id": "132",
    "name": "Talega Life Church (Sea Coast)",
    "type": "Church",
    "address": "1040 Calle Negocio, San Clemente, 92673",
    "lat": 33.4544504,
    "lng": -117.601879,
    "careportal": false,
    "radius": 5,
    "website": "seacoastgrace.org",
    "phone": ""
  },
  {
    "id": "133",
    "name": "St. Andrew’s by-the-Sea UMC",
    "type": "Church",
    "address": "2001 Calle Frontera, San Clemente, 92673",
    "lat": 33.4406106,
    "lng": -117.6219475,
    "careportal": false,
    "radius": 5,
    "website": "sabts.org",
    "phone": "949-492-2537"
  },
  {
    "id": "137",
    "name": "South County Community Church",
    "type": "Church",
    "address": "101 Avenida Serra, San Clemente, 92672",
    "lat": 33.4282027,
    "lng": -117.6140125,
    "careportal": false,
    "radius": 5,
    "website": "",
    "phone": ""
  },
  {
    "id": "138",
    "name": "Vineyard Christian Fellowship",
    "type": "Church",
    "address": "102 Paseo de la Serenata, San Clemente, 92673",
    "lat": 33.4106319,
    "lng": -117.604,
    "careportal": false,
    "radius": 5,
    "website": "",
    "phone": ""
  },
  {
    "id": "139",
    "name": "Calvary Chapel South County",
    "type": "Church",
    "address": "33157 Camino Capistrano, San Juan Capistrano, 92675",
    "lat": 33.4819583,
    "lng": -117.6716788,
    "careportal": false,
    "radius": 5,
    "website": "ccsouthcounty.org",
    "phone": "949-443-2572"
  },
  {
    "id": "140",
    "name": "Mariners Church – Ocean Hills",
    "type": "Church",
    "address": "32222 Del Obispo, San Juan Capistrano, 92675",
    "lat": 33.4942667,
    "lng": -117.6742275,
    "careportal": false,
    "radius": 5,
    "website": "marinerschurch.org/oceanhills",
    "phone": ""
  },
  {
    "id": "141",
    "name": "Mission Basilica San Juan Capistrano",
    "type": "Church",
    "address": "31520 Camino Capistrano, San Juan Capistrano, 92675",
    "lat": 33.5037941,
    "lng": -117.6633345,
    "careportal": false,
    "radius": 5,
    "website": "missionsjc.com",
    "phone": "949-234-1360"
  },
  {
    "id": "142",
    "name": "Saddleback Church – Rancho Capistrano",
    "type": "Church",
    "address": "29251 Camino Capistrano, San Juan Capistrano, 92675",
    "lat": 33.5404194,
    "lng": -117.6774167,
    "careportal": false,
    "radius": 5,
    "website": "saddleback.com",
    "phone": ""
  },
  {
    "id": "143",
    "name": "St. Margaret’s Episcopal Church",
    "type": "Church",
    "address": "31641 La Novia Ave, San Juan Capistrano, 92675",
    "lat": 33.5046938,
    "lng": -117.650638,
    "careportal": false,
    "radius": 5,
    "website": "stmarg.org",
    "phone": "949-661-0110"
  },
  {
    "id": "145",
    "name": "REIGN Christian Fellowship",
    "type": "Church",
    "address": "32261 Camino Capistrano, San Juan Capistrano, 92675",
    "lat": 33.4945848,
    "lng": -117.6636776,
    "careportal": false,
    "radius": 5,
    "website": "reignchristianfellowship.org",
    "phone": ""
  },
  {
    "id": "146",
    "name": "Capistrano Valley Church",
    "type": "Church",
    "address": "32032 Del Obispo St, San Juan Capistrano, 92675",
    "lat": 33.497683,
    "lng": -117.6706019,
    "careportal": false,
    "radius": 5,
    "website": "capovalleychurch.com",
    "phone": "949-443-2572"
  },
  {
    "id": "147",
    "name": "San Juan Capistrano Old Mission",
    "type": "Church",
    "address": "31520 Camino Capistrano, San Juan Capistrano, 92675",
    "lat": 33.5037941,
    "lng": -117.6633345,
    "careportal": false,
    "radius": 5,
    "website": "missionsjc.com",
    "phone": "949-234-1360"
  },
  {
    "id": "148",
    "name": "South Coast Christian Assembly",
    "type": "Church",
    "address": "31501 Avenida Los Cerritos, San Juan Capistrano, 92675",
    "lat": 33.504103,
    "lng": -117.657448,
    "careportal": false,
    "radius": 5,
    "website": "southcoastchristian.com",
    "phone": "949-240-4777"
  },
  {
    "id": "149",
    "name": "St. John the Theologian Mission",
    "type": "Church",
    "address": "32244 Paseo Adelanto, San Juan Capistrano, 92675",
    "lat": 33.4934847,
    "lng": -117.6646063,
    "careportal": false,
    "radius": 5,
    "website": "stjohnanaheim.org",
    "phone": "949-240-2433"
  },
  {
    "id": "150",
    "name": "Community Christian Church",
    "type": "Church",
    "address": "31612 El Camino Real, San Juan Capistrano, 92675",
    "lat": 33.503647,
    "lng": -117.6617451,
    "careportal": false,
    "radius": 5,
    "website": "cccsjc.org",
    "phone": "949-493-2006"
  },
  {
    "id": "152",
    "name": "Living Water Christian Fellowship",
    "type": "Church",
    "address": "27762 Antonio Pkwy #L1, Ladera Ranch, 92694",
    "lat": 33.5601408,
    "lng": -117.6297686,
    "careportal": false,
    "radius": 5,
    "website": "livingwateroc.org",
    "phone": "949-716-9262"
  },
  {
    "id": "153",
    "name": "Trabuco Presbyterian Church",
    "type": "Church",
    "address": "31802 Las Amigas Dr, Trabuco Canyon, 92678",
    "lat": 33.6463464,
    "lng": -117.5764089,
    "careportal": false,
    "radius": 5,
    "website": "",
    "phone": ""
  },
  {
    "id": "154",
    "name": "Trabuco Canyon Community Church",
    "type": "Church",
    "address": "30121 Canyon Creek, Trabuco Canyon, 92678",
    "lat": 33.6740791,
    "lng": -117.6053287,
    "careportal": false,
    "radius": 5,
    "website": "trabucochurch.org",
    "phone": "949-858-0624"
  }
]